{"type":"FeatureCollection","features":[{"type":"Feature","properties":{"Name":"Emirates Stadium","Address":"Hornsey Rd, London N7 7AJ, United Kingdom","City":"London","Team":"Arsenal FC","Capacity":"60,260","Opened":2006},"geometry":{"type":"Point","coordinates":[-0.108426,51.555091]}},{"type":"Feature","properties":{"Name":"Villa Park","Address":"Trinity Rd, Birmingham B6 6HE, United Kingdom","City":"Birmingham","Team":"Aston Villa FC","Capacity":"42,095","Opened":1897},"geometry":{"type":"Point","coordinates":[-1.884904,52.509133]}},{"type":"Feature","properties":{"Name":"Brentford Community Stadium","Address":"166 Lionel Rd N, Brentford TW8 9QT, United Kingdom","City":"London","Team":"Brentford FC","Capacity":"17,250","Opened":2020},"geometry":{"type":"Point","coordinates":[-0.288746,51.490682]}},{"type":"Feature","properties":{"Name":"American Express Community Stadium","Address":"Village Way, Brighton BN1 9BL, United Kingdom","City":"Brighton","Team":"Brighton & Hove Albion FC","Capacity":"32,000","Opened":2011},"geometry":{"type":"Point","coordinates":[-0.083147674,50.86169375]}},{"type":"Feature","properties":{"Name":"Turf Moor","Address":"Turf Moor, Harry Potts Way, Burnley BB10 4BX, United Kingdom","City":"Burnley","Team":"Burnley FC","Capacity":"21,944","Opened":1883},"geometry":{"type":"Point","coordinates":[-2.230154683,53.7891022]}},{"type":"Feature","properties":{"Name":"Stamford Bridge","Address":"Fulham Rd., London SW6 1HS, United Kingdom","City":"London","Team":"Chelsea FC","Capacity":"41,837","Opened":1877},"geometry":{"type":"Point","coordinates":[-0.190613179,51.48181665]}},{"type":"Feature","properties":{"Name":"Selhurst Park","Address":"Whitehorse Ln, London SE25 6PU, United Kingdom","City":"London","Team":"Crystal Palace FC","Capacity":"25,486","Opened":1924},"geometry":{"type":"Point","coordinates":[-0.084888159,51.39833574]}},{"type":"Feature","properties":{"Name":"Goodison Park","Address":"Goodison Rd, Liverpool L4 4EL, United Kingdom","City":"Liverpool","Team":"Everton FC","Capacity":"39,414","Opened":1892},"geometry":{"type":"Point","coordinates":[-2.966051081,53.43892758]}},{"type":"Feature","properties":{"Name":"Elland Road","Address":"Elland Rd, Beeston, Leeds LS11 0ES, United Kingdom","City":"Leeds","Team":"Leeds United FC","Capacity":"37,792","Opened":1897},"geometry":{"type":"Point","coordinates":[-1.571661804,53.77787958]}},{"type":"Feature","properties":{"Name":"King Power Stadium","Address":"Filbert Wy, Leicester LE2 7FL, United Kingdom","City":"Leicester","Team":"Leicester City FC","Capacity":"32,261","Opened":2002},"geometry":{"type":"Point","coordinates":[-1.141695975,52.62056158]}},{"type":"Feature","properties":{"Name":"Anfield","Address":"Anfield Rd, Anfield, Liverpool L4 0TH, United Kingdom","City":"Liverpool","Team":"Liverpool FC","Capacity":"53,394","Opened":1884},"geometry":{"type":"Point","coordinates":[-2.96047595,53.43097001]}},{"type":"Feature","properties":{"Name":"Etihad Stadium","Address":"Ashton New Rd, Manchester M11 3FF, United Kingdom","City":"Manchester","Team":"Manchester City FC","Capacity":"53,400","Opened":2003},"geometry":{"type":"Point","coordinates":[-2.200008488,53.48320511]}},{"type":"Feature","properties":{"Name":"Old Trafford","Address":"Sir Matt Busby Way, Old Trafford, Stretford, Manchester M16 0RA, United Kingdom","City":"Manchester","Team":"Manchester United FC","Capacity":"74,140","Opened":1909},"geometry":{"type":"Point","coordinates":[-2.291007508,53.46314192]}},{"type":"Feature","properties":{"Name":"St. James' Park","Address":"Barrack Rd, Newcastle upon Tyne NE1 4ST, United Kingdom","City":"Newcastle-upon-Tyne","Team":"Newcastle United FC","Capacity":"52,305","Opened":1892},"geometry":{"type":"Point","coordinates":[-1.621480847,54.97561739]}},{"type":"Feature","properties":{"Name":"Carrow Road","Address":"Carrow Rd, Norwich NR1 3JE, United Kingdom","City":"Norwich","Team":"Norwich City FC","Capacity":"27,359","Opened":1935},"geometry":{"type":"Point","coordinates":[1.309742838,52.62228011]}},{"type":"Feature","properties":{"Name":"St. Mary's Stadium","Address":"Britannia Rd, Southampton SO14 5FP, United Kingdom","City":"Southampton","Team":"Southampton FC","Capacity":"32,384","Opened":2001},"geometry":{"type":"Point","coordinates":[-1.390490162,50.90594096]}},{"type":"Feature","properties":{"Name":"Tottenham Hotspur Stadium","Address":"782 High Rd, London N17 0BX, United Kingdom","City":"London","Team":"Tottenham Hotspur FC","Capacity":"62,850","Opened":2019},"geometry":{"type":"Point","coordinates":[-0.065770133,51.60440469]}},{"type":"Feature","properties":{"Name":"Vicarage Road","Address":"Vicarage Rd, Watford WD18 0ER, United Kingdom","City":"Watford","Team":"Watford FC","Capacity":"22,200","Opened":1922},"geometry":{"type":"Point","coordinates":[-0.401072348,51.65000105]}},{"type":"Feature","properties":{"Name":"London Stadum","Address":"London E20 2ST, United Kingdom","City":"London","Team":"West Ham United FC","Capacity":"66,000","Opened":2012},"geometry":{"type":"Point","coordinates":[-0.016281837,51.53886296]}},{"type":"Feature","properties":{"Name":"Molineux Stadium","Address":"Waterloo Rd, Wolverhampton WV1 4QR, United Kingdom","City":"Wolverhampton","Team":"Wolverhampton Wanderers FC","Capacity":"32,050","Opened":1889},"geometry":{"type":"Point","coordinates":[-2.130031839,52.59033041]}}]}